{
    "type": "FeatureCollection",
    "features": [
      {
        "type": "Feature",
        "properties": {
          "2016": 119326314,
          "2017": 166936502,
          "2018": 184922285,
          "2019": 289050189,
          "2020": 245590899,
          "2021": 231190339,
          "Name": "Netherlands"
        },
        "geometry": {
          "type": "Point",
          "coordinates": [
            5.501896,
            52.554205
          ]
        }
      },
      {
        "type": "Feature",
        "properties": {
          "2016": 176976167,
          "2017": 206740256,
          "2018": 221126519,
          "2019": 148503701,
          "2020": 205323882,
          "2021": 271157550,
          "Name": "Canada"
        },
        "geometry": {
          "type": "Point",
          "coordinates": [
            -112.384858,
            58.33747
          ]
        }
      },
      {
        "type": "Feature",
        "properties": {
          "2016": 212825626,
          "2017": 148994962,
          "2018": 155515419,
          "2019": 148859212,
          "2020": 115133652,
          "2021": 168700385,
          "Name": "Germany"
        },
        "geometry": {
          "type": "Point",
          "coordinates": [
            9.62743,
            51.196755
          ]
        }
      },
      {
        "type": "Feature",
        "properties": {
          "2016": 212540846,
          "2017": 289759785,
          "2018": 332932065,
          "2019": 263953178,
          "2020": 182634536,
          "2021": 205642657,
          "Name": "Japan"
        },
        "geometry": {
          "type": "Point",
          "coordinates": [
            138.441899,
            36.13793
          ]
        }
      },
      {
        "type": "Feature",
        "properties": {
          "2016": 201282209,
          "2017": 199122097,
          "2018": 200814056,
          "2019": 157453897,
          "2020": 138305266,
          "2021": 157627013,
          "Name": "South Korea"
        },
        "geometry": {
          "type": "Point",
          "coordinates": [
            128.123986,
            36.382192
          ]
        }
      },
      {
        "type": "Feature",
        "properties": {
          "2016": 32553940,
          "2017": 56435089,
          "2018": 46079753,
          "2019": 35446857,
          "2020": 28316516,
          "2021": 22669769,
          "Name": "China"
        },
        "geometry": {
          "type": "Point",
          "coordinates": [
            106.431983,
            32.523743
          ]
        }
      },
      {
        "type": "Feature",
        "properties": {
          "2016": 17307966,
          "2017": 28350973,
          "2018": 14956885,
          "2019": 15475405,
          "2020": 16776431,
          "2021": 42212139,
          "Name": "Poland"
        },
        "geometry": {
          "type": "Point",
          "coordinates": [
            20.388926,
            51.899304
          ]
        }
      },
      {
        "type": "Feature",
        "properties": {
          "2016": 61301444,
          "2017": 62755795,
          "2018": 78540509,
          "2019": 81779829,
          "2020": 83320789,
          "2021": 78524196,
          "Name": "France"
        },
        "geometry": {
          "type": "Point",
          "coordinates": [
            2.549047,
            46.698481
          ]
        }
      },
      {
        "type": "Feature",
        "properties": {
          "2016": 48034780,
          "2017": 46843235,
          "2018": 52354376,
          "2019": 53749293,
          "2020": 55261468,
          "2021": 50563140,
          "Name": "Spain"
        },
        "geometry": {
          "type": "Point",
          "coordinates": [
            -3.464618,
            40.09095
          ]
        }
      }
    ]
  }