{"type":"FeatureCollection","features":[{"type":"Feature","properties":{"2016":441963130,"2017":569215106,"2018":559195400,"2019":545166363,"2020":502485601,"2021":633456403,"Name":"Mexico"},"geometry":{"type":"Point","coordinates":[-102.3592103,24.44385214]}},{"type":"Feature","properties":{"2016":219297375,"2017":289560260,"2018":291372491,"2019":284433730,"2020":262619911,"2021":429672816,"Name":"Colombia"},"geometry":{"type":"Point","coordinates":[-73.22782159,3.707701555]}},{"type":"Feature","properties":{"2016":98204183,"2017":170655465,"2018":320414583,"2019":316179135,"2020":335540234,"2021":344362261,"Name":"Netherlands"},"geometry":{"type":"Point","coordinates":[5.497350462,52.13743947]}},{"type":"Feature","properties":{"2016":199458814,"2017":217903641,"2018":246269726,"2019":230275140,"2020":204277492,"2021":281786147,"Name":"Canada"},"geometry":{"type":"Point","coordinates":[-112.384858,58.33747]}},{"type":"Feature","properties":{"2016":48498369,"2017":59967465,"2018":72937188,"2019":88485964,"2020":66833822,"2021":168647049,"Name":"India"},"geometry":{"type":"Point","coordinates":[79.20995325,22.63761428]}},{"type":"Feature","properties":{"2016":106315654,"2017":101015255,"2018":110937727,"2019":141002297,"2020":156448359,"2021":148054039,"Name":"South Korea"},"geometry":{"type":"Point","coordinates":[128.123986,36.382192]}},{"type":"Feature","properties":{"2016":15470629,"2017":42864946,"2018":45850714,"2019":112121732,"2020":113977673,"2021":132773158,"Name":"Brazil"},"geometry":{"type":"Point","coordinates":[-52.02230021,-10.01175319]}},{"type":"Feature","properties":{"2016":48088324,"2017":48868350,"2018":68301682,"2019":67518308,"2020":71146377,"2021":119492620,"Name":"Belgium"},"geometry":{"type":"Point","coordinates":[4.84385678,50.74290489]}},{"type":"Feature","properties":{"2016":58200433,"2017":69470346,"2018":60820197,"2019":69309108,"2020":52940276,"2021":112360463,"Name":"Taiwan"},"geometry":{"type":"Point","coordinates":[120.9634421,23.69142359]}},{"type":"Feature","properties":{"2016":150629914,"2017":139745801,"2018":128677025,"2019":116342811,"2020":90524012,"2021":91610153,"Name":"China"},"geometry":{"type":"Point","coordinates":[106.431983,32.523743]}},{"type":"Feature","properties":{"2016":79692574,"2017":75939449,"2018":83306346,"2019":91373689,"2020":88498139,"2021":86573701,"Name":"Japan"},"geometry":{"type":"Point","coordinates":[138.441899,36.13793]}}]}