Name,2016,2017,2018,2019,2020,2021,Latitude ,Longitude 
Netherlands,119326314,166936502,184922285,289050189,245590899,231190339,52.554205,5.501896
Canada,176976167,206740256,221126519,148503701,205323882,271157550,58.33747,-112.384858
Germany,212825626,148994962,155515419,148859212,115133652,168700385,51.196755,9.62743
Japan,212540846,289759785,332932065,263953178,182634536,205642657,36.13793,138.441899
South Korea,201282209,199122097,200814056,157453897,138305266,157627013,36.382192,128.123986
China,32553940,56435089,46079753,35446857,28316516,22669769,32.523743,106.431983
Poland,17307966,28350973,14956885,15475405,16776431,42212139,51.899304,20.388926
France,61301444,62755795,78540509,81779829,83320789,78524196,46.698481,2.549047
Spain,4803478,46843235,52354376,53749293,55261468,50563140,40.09095,-3.464618